[
    {
        "title": "Maturareise Andermatt",
        "type": "Skitour",
        "date": "2004-03-29",
        "points": [
            {
                "lat": 46.63533,
                "long": 8.59332
            }
        ],
        "photoUrl": "2004/2004-03-29-Maturareise-Andermatt-by-Schmidi"
    },
    {
        "title": "Jungfrau Marathon",
        "type": "Run",
        "date": "2004-09-11",
        "points": [
            {
                "lat": 46.57339,
                "long": 7.97001
            }
        ],
        "photoUrl": "2004/2004-09-11-Jungfrau-Marathon"
    },
    {
        "title": "Lausanne Semi Marathon",
        "type": "Run",
        "date": "2004-10-04",
        "points": [
            {
                "lat": 46.45388,
                "long": 6.85933
            }
        ],
        "photoUrl": "2004/2004-10-04-Lausanne-Semi-Marathon"
    },
    {
        "title": "Aletsch Halbmarathon",
        "type": "Run",
        "date": "2005-06-26",
        "points": [
            {
                "lat": 46.41071,
                "long": 8.07614
            }
        ]
    },
    {
        "title": "Swiss Alpine Marathon",
        "type": "Run",
        "date": "2005-07-30",
        "points": [
            {
                "lat": 46.69274,
                "long": 9.92026
            }
        ],
        "photoUrl": "2005/2005-07-30-Swiss-Alpine-Marathon"
    },
    {
        "title": "Inferno Halbmarathon",
        "type": "Run",
        "date": "2005-08-19",
        "points": [
            {
                "lat": 46.55733,
                "long": 7.83523
            }
        ]
    },
    {
        "title": "Jungfrau Marathon",
        "type": "Run",
        "date": "2005-09-10",
        "points": [
            {
                "lat": 46.57339,
                "long": 7.97001
            }
        ],
        "photoUrl": "2005/2005-09-10-Jungfrau-Marathon"
    },
    {
        "title": "Swiss Alpine Marathon",
        "type": "Run",
        "date": "2006-07-29",
        "points": [
            {
                "lat": 46.69274,
                "long": 9.92026
            }
        ],
        "photoUrl": "2006/2006-07-29-Swiss-Alpine-Marathon"
    },
    {
        "title": "Jungfrau Marathon",
        "type": "Run",
        "date": "2006-09-09",
        "points": [
            {
                "lat": 46.57339,
                "long": 7.97001
            }
        ],
        "photoUrl": "2006/2006-09-09-Jungfrau-Marathon"
    },
    {
        "title": "Algonquin Park",
        "type": "Hike",
        "date": "2007-10-02",
        "points": [
            {
                "lat": 45.46318393235673,
                "long": -78.65541024433671
            }
        ],
        "photoUrl": "2007-10-02-Algonquin-Park"
    },
    {
        "title": "Piz Sarsura & Sarsuret",
        "type": "Skitour",
        "date": "2010-03-29",
        "points": [
            {
                "lat": 46.71031,
                "long": 9.96060
            },
            {
                "lat": 46.69120,
                "long": 9.99444
            },
            {
                "lat": 46.69007,
                "long": 10.00756
            }
        ],
        "photoUrl": "2010/2010-03-29-Grialetsch"
    },
    {
        "title": "Orvin, Le Schilt, and Le Paradis",
        "type": "Climb",
        "date": "2011-04-25",
        "points": [
            {
                "lat": 47.16677,
                "long": 7.22069
            },
            {
                "lat": 47.17738,
                "long": 7.18940
            },
            {
                "lat": 47.19483,
                "long": 7.21454
            }
        ],
        "photoUrl": "2011/2011-04-25-Orvin-Le-Schilt-and-Le-Paradis"
    },
    {
        "title": "Mittagflue",
        "type": "Climb",
        "date": "2011-05-06",
        "points": [
            {
                "lat": 46.63592,
                "long": 7.36723
            }
        ],
        "photoUrl": "2011/2011-05-06-Simmental-Mittagflue"
    },
    {
        "title": "Pfadflue - Hallo Marco",
        "type": "Climb",
        "date": "2011-05-29",
        "points": [
            {
                "lat": 46.57866,
                "long": 7.27382
            }
        ],
        "photoUrl": "2011/2011-05-29-Gastlosen-Pfadflue-Hallo-Marco"
    },
    {
        "title": "Rhonegletscher",
        "type": "Hochtour",
        "date": "2011-06-12",
        "points": [
            {
                "lat": 46.58825,
                "long": 8.38802
            }
        ],
        "photoUrl": "2011/2011-06-12-ASVZ-Eiskurs"
    },
    {
        "title": "Dent de Ruth - Salut les copains",
        "type": "Climb",
        "date": "2011-06-26",
        "points": [
            {
                "lat": 46.55328,
                "long": 7.23657
            }
        ],
        "photoUrl": "2011/2011-06-26-Gastlosen-Dent-de-Ruth-Salut-les-copains"
    },
    {
        "title": "Lac Long",
        "type": "Climb",
        "date": "2011-07-02",
        "points": [
            {
                "lat": 46.81286,
                "long": -72.10099
            }
        ],
        "photoUrl": "2011/2011-07-02-Team-A-Reunion-Quebec-1-Lac-Long"
    },
    {
        "title": "Julien Labedan Val David",
        "type": "Climb",
        "date": "2011-07-05",
        "points": [
            {
                "lat": 46.028,
                "long": -74.2002
            }
        ],
        "photoUrl": "2011/2011-07-05-Team-A-Reunion-Quebec-3-Julien-Labedan-Val-David"
    },
    {
        "title": "Kamouraska",
        "type": "Climb",
        "date": "2011-07-08",
        "points": [
            {
                "lat": 47.64434,
                "long": -69.73952
            }
        ],
        "photoUrl": "2011/2011-07-08-Team-A-Reunion-Quebec-4-Kamouraska"
    },
    {
        "title": "Lac Long",
        "type": "Climb",
        "date": "2011-07-09",
        "points": [
            {
                "lat": 46.81286,
                "long": -72.10099
            }
        ],
        "photoUrl": "2011/2011-07-09-Team-A-Reunion-Quebec-5-Lac-Long-2"
    },
    {
        "title": "Wellesley Arches",
        "type": "Climb",
        "date": "2011-07-13",
        "points": [
            {
                "lat": 42.28295565462435,
                "long": -71.29683037800504
            }
        ],
        "photoUrl": "2011/2011-07-13-Wellesley-Arches"
    },
    {
        "title": "The Gunks",
        "type": "Climb",
        "date": "2011-07-17",
        "points": [
            {
                "lat": 41.74328290583386,
                "long": -74.18072960532618
            }
        ],
        "photoUrl": "2011/2011-07-17-The-Gunks"
    },
    {
        "title": "Weisshorn",
        "type": "Hochtour",
        "date": "2011-08-09",
        "points": [
            {
                "lat": 46.10128,
                "long": 7.71608
            }
        ],
        "photoUrl": "2011/2011-08-09-Weisshorn"
    },
    {
        "title": "Saxon Switzerland",
        "type": "Climb",
        "date": "2011-08-20",
        "points": [
            {
                "lat": 50.912053499016494,
                "long": 14.218668198207016
            }
        ],
        "photoUrl": "2011/2011-08-20-Saxon-Switzerland-Team-Awesome-Reunion"
    },
    {
        "title": "Bockmattli Nordwestwand of Grosser Turm",
        "type": "Climb",
        "date": "2011-08-23",
        "points": [
            {
                "lat": 47.10101,
                "long": 8.95776
            }
        ],
        "photoUrl": "2011/2011-08-23-Bockmattli-Nordwestwand-of-Grosser-Turm"
    },
    {
        "title": "Balmflue Süwände und Mauerläufer",
        "type": "Climb",
        "date": "2011-08-28",
        "points": [
            {
                "lat": 47.25368,
                "long": 7.54287
            }
        ],
        "photoUrl": "2011/2011-08-28-Balmflue-Süwände-und-Mauerläufer"
    },
    {
        "title": "Face de Plagne",
        "type": "Climb",
        "date": "2011-08-31",
        "points": [
            {
                "lat": 47.17738,
                "long": 7.25244
            }
        ],
        "photoUrl": "2011/2011-08-31-Face-de-Plagne"
    },
    {
        "title": "Räterichsbodensee",
        "type": "Climb",
        "date": "2011-09-03",
        "points": [
            {
                "lat": 46.58358,
                "long": 8.32318
            }
        ],
        "photoUrl": "2011/2011-09-03-Grimsel-Räterichsbodensee"
    },
    {
        "title": "Miroir d'Argentine",
        "type": "Climb",
        "date": "2011-09-24",
        "points": [
            {
                "lat": 46.27809,
                "long": 7.14304
            }
        ],
        "photoUrl": "2011/2011-09-24-Miroir-dArgentine"
    },
    {
        "title": "Dent de Fenestral",
        "type": "Climb",
        "date": "2011-09-25",
        "points": [
            {
                "lat": 46.09649,
                "long": 6.95286
            }
        ],
        "photoUrl": "2011/2011-09-25-Dent-de-Fenestral"
    },
    {
        "title": "Winterstock",
        "type": "Climb",
        "date": "2011-10-05",
        "points": [
            {
                "lat": 46.61897,
                "long": 8.46078
            }
        ],
        "photoUrl": "2011/2011-10-05-Furka-Winterstock"
    },
    {
        "title": "Pfadflue",
        "type": "Climb",
        "date": "2011-10-16",
        "points": [
            {
                "lat": 46.57866,
                "long": 7.27382
            }
        ],
        "photoUrl": "2011/2011-10-16-Gastlosen-avec-club-montagne-EPFL-et-AACZ"
    },
    {
        "title": "Lausanne Semi Marathon",
        "type": "Run",
        "date": "2011-10-30",
        "points": [
            {
                "lat": 46.45388,
                "long": 6.85933
            }
        ]
    },
    {
        "title": "Le Catogne - Le Bonhomme Eperon SW",
        "type": "Climb",
        "date": "2011-11-19",
        "points": [
            {
                "lat": 46.04383,
                "long": 7.11688
            }
        ],
        "photoUrl": "2011/2011-11-19-Le-Catogne-Le-Bonhomme-Eperon-SW"
    },
    {
        "title": "Le Schilt",
        "type": "Climb",
        "date": "2011-11-27",
        "points": [
            {
                "lat": 47.17738,
                "long": 7.18940
            }
        ],
        "photoUrl": "2011/2011-11-27-Failure-at-Le-Schilt"
    },
    {
        "title": "Teysachaux",
        "type": "Climb",
        "date": "2012-01-11",
        "points": [
            {
                "lat": 46.53412,
                "long": 6.99622
            }
        ],
        "photoUrl": "2012/2012-01-11-Teysachaux-by-Full-Moon"
    },
    {
        "title": "Campsut",
        "type": "WinterClimb",
        "date": "2012-01-25",
        "points": [
            {
                "lat": 46.48825,
                "long": 9.48069
            }
        ],
        "photoUrl": "2012/2012-01-25-Ice-Climbing-Avers-Campsut"
    },
    {
        "title": "Meniggrat",
        "type": "Skitour",
        "date": "2012-02-05",
        "points": [
            {
                "lat": 46.59144,
                "long": 7.48222
            }
        ],
        "photoUrl": "2012/2012-02-05-Meniggrat"
    },
    {
        "title": "Teysachaux",
        "type": "Climb",
        "date": "2012-02-08",
        "points": [
            {
                "lat": 46.53412,
                "long": 6.99622
            }
        ],
        "photoUrl": "2012/2012-02-08-Teysachaux-Full-Moon-II"
    },
    {
        "title": "Scotland",
        "type": "WinterClimb",
        "date": "2012-02-20",
        "points": [
            {
                "lat": 57.10582358903136,
                "long": -3.6721967981827115
            }
        ],
        "photoUrl": "2012/2012-02-20-The-Great-Outdoors-of-Scotland"
    },
    {
        "title": "Orvin",
        "type": "Climb",
        "date": "2012-03-03",
        "points": [
            {
                "lat": 47.16677,
                "long": 7.22069
            }
        ],
        "photoUrl": "2012/2012-03-03-Orvin-Once-More"
    },
    {
        "title": "Le Paradis",
        "type": "Climb",
        "date": "2012-03-25",
        "points": [
            {
                "lat": 47.19483,
                "long": 7.21454
            }
        ],
        "photoUrl": "2012/2012-03-25-Le-Paradis"
    },
    {
        "title": "Balmflue",
        "type": "Climb",
        "date": "2012-04-08",
        "points": [
            {
                "lat": 47.25368,
                "long": 7.54287
            }
        ],
        "photoUrl": "2012/2012-04-08-Freezing-Balmfluh"
    },
    {
        "title": "Le Schilt",
        "type": "Climb",
        "date": "2012-04-09",
        "points": [
            {
                "lat": 47.17738,
                "long": 7.18940
            }
        ],
        "photoUrl": "2012/2012-04-09-Freezing-Schilt"
    },
    {
        "title": "Konkordiaplatz",
        "type": "Skitour",
        "date": "2012-04-14",
        "points": [
            {
                "lat": 46.50642,
                "long": 8.02843
            }
        ],
        "photoUrl": "2012/2012-04-14-Rando-de-ski-Konkordiaplatz"
    },
    {
        "title": "20km de Lausanne",
        "type": "Run",
        "date": "2012-04-28",
        "points": [
            {
                "lat": 46.52257,
                "long": 6.63525
            }
        ]
    },
    {
        "title": "Klus Balsthal",
        "type": "Climb",
        "date": "2012-05-19",
        "points": [
            {
                "lat": 47.30089,
                "long": 7.68847
            }
        ],
        "photoUrl": "2012/2012-05-19-Klus-Balsthal"
    },
    {
        "title": "Gastlosen",
        "type": "Climb",
        "date": "2012-05-28",
        "points": [
            {
                "lat": 46.56126,
                "long": 7.26068
            }
        ],
        "photoUrl": "2012/2012-05-28-Gastlosen-IV"
    },
    {
        "title": "Col du Midi",
        "type": "Skitour",
        "date": "2012-06-10",
        "points": [
            {
                "lat": 45.86476,
                "long": 6.89529
            }
        ],
        "photoUrl": "2012/2012-06-10-Chamonix-I"
    },
    {
        "title": "Arête des Cosmiques",
        "type": "Hochtour",
        "date": "2012-06-17",
        "points": [
            {
                "lat": 45.87674,
                "long": 6.88632
            }
        ],
        "photoUrl": "2012/2012-06-17-Chamonix-II-Arête-des-Cosmiques"
    },
    {
        "title": "La Tour d'Aï",
        "type": "ViaFerrata",
        "date": "2012-06-28",
        "points": [
            {
                "lat": 46.37216,
                "long": 7.00195
            }
        ],
        "photoUrl": "2012/2012-06-28-La-Tour-dAi-My-First-Lightning-Rod"
    },
    {
        "title": "Le Suchet",
        "type": "Climb",
        "date": "2012-07-11",
        "points": [
            {
                "lat": 46.77252,
                "long": 6.46627
            }
        ],
        "photoUrl": "2012/2012-07-11-Le-Suchet"
    },
    {
        "title": "Hintisberg",
        "type": "Climb",
        "date": "2012-07-17",
        "points": [
            {
                "lat": 46.65854,
                "long": 7.94655
            }
        ],
        "photoUrl": "2012/2012-07-17-Hintisberg"
    },
    {
        "title": "Engelhörner Silberfinger",
        "type": "Climb",
        "date": "2012-07-18",
        "points": [
            {
                "lat": 46.68202,
                "long": 8.17981
            }
        ],
        "photoUrl": "2012/2012-07-18-Engelhörner-Silberfinger"
    },
    {
        "title": "Moléson",
        "type": "ViaFerrata",
        "date": "2012-07-26",
        "points": [
            {
                "lat": 46.54649,
                "long": 7.01803
            }
        ],
        "photoUrl": "2012/2012-07-26-Moléson-Another-Lightning-Rod"
    },
    {
        "title": "Sagittarius",
        "type": "Climb",
        "date": "2012-08-01",
        "points": [
            {
                "lat": 46.59668,
                "long": 8.33106
            }
        ],
        "photoUrl": "2012/2012-08-01-Grimsel-Sagittarius"
    },
    {
        "title": "Alphubel",
        "type": "Hochtour",
        "date": "2012-08-06",
        "points": [
            {
                "lat": 46.06283,
                "long": 7.86385
            }
        ],
        "photoUrl": "2012/2012-08-06-Alphubel"
    },
    {
        "title": "Galengratverschneidung",
        "type": "Climb",
        "date": "2012-08-08",
        "points": [
            {
                "lat": 46.60470,
                "long": 8.41378
            }
        ],
        "photoUrl": "2012/2012-08-08-Furka-Galengratverschneidung"
    },
    {
        "title": "Gastlosen",
        "type": "Climb",
        "date": "2012-09-09",
        "points": [
            {
                "lat": 46.56338,
                "long": 7.25963
            }
        ],
        "photoUrl": "2012/2012-09-09-Gastlosen-V"
    },
    {
        "title": "Mont Blanc Failure",
        "type": "Hochtour",
        "date": "2012-10-07",
        "points": [
            {
                "lat": 45.85498,
                "long": 6.82475
            }
        ],
        "photoUrl": "2012/2012-10-07-Mont-Blanc-Failure"
    },
    {
        "title": "Wildstrubel",
        "type": "Skitour",
        "date": "2013-02-10",
        "points": [
            {
                "lat": 46.40033,
                "long": 7.52851
            }
        ],
        "photoUrl": "2013/2013-02-10-Wildstrubel"
    },
    {
        "title": "Chli Bielenhorn",
        "type": "Skitour",
        "date": "2013-02-17",
        "points": [
            {
                "lat": 46.59887,
                "long": 8.43480
            }
        ],
        "photoUrl": "2013/2013-02-17-Chli-Bielenhorn"
    },
    {
        "title": "Col des Chamois",
        "type": "Skitour",
        "date": "2013-02-24",
        "points": [
            {
                "lat": 46.27922,
                "long": 7.16173
            }
        ],
        "photoUrl": "2013/2013-02-24-Presque-au-Col-des-Chamois"
    },
    {
        "title": "Tödi",
        "type": "Skitour",
        "date": "2013-03-03",
        "points": [
            {
                "lat": 46.81127,
                "long": 8.91489
            }
        ],
        "photoUrl": "2013/2013-03-03-Tödi"
    },
    {
        "title": "Col des Mosses",
        "type": "Bike",
        "date": "2013-03-09",
        "points": [
            {
                "lat": 46.39998,
                "long": 7.10594
            }
        ],
        "photoUrl": "2013/2013-03-09-Jacuzzi"
    },
    {
        "title": "Lac Lioson",
        "type": "Skitour",
        "date": "2013-03-09",
        "points": [
            {
                "lat": 46.38757,
                "long": 7.12812
            }
        ],
        "photoUrl": "2013/2013-03-09-Jacuzzi"
    },
    {
        "title": "Avegno",
        "type": "Climb",
        "date": "2013-03-31",
        "points": [
            {
                "lat": 46.20025,
                "long": 8.74284
            }
        ],
        "photoUrl": "2013/2013-03-31-We-Have-Found-Spring-It-Was-Hiding-in-Avegno"
    },
    {
        "title": "Dufourspitze",
        "type": "Hochtour",
        "date": "2013-04-14",
        "points": [
            {
                "lat": 45.93691,
                "long": 7.86676
            }
        ],
        "photoUrl": "2013/2013-04-14-Dufourspitze"
    },
    {
        "title": "Mont Raimeux",
        "type": "Climb",
        "date": "2013-05-06",
        "points": [
            {
                "lat": 47.29772,
                "long": 7.39419
            }
        ],
        "photoUrl": "2013/2013-05-06-Another-Two-Days-in-Bliss"
    },
    {
        "title": "Gastlosen",
        "type": "Climb",
        "date": "2013-06-10",
        "points": [
            {
                "lat": 46.56126,
                "long": 7.26068
            }
        ],
        "photoUrl": "2013/2013-06-10-Gastlosen-VI"
    },
    {
        "title": "Mont Blanc par les Grands Mulets",
        "type": "Skitour",
        "date": "2013-06-17",
        "points": [
            {
                "lat": 45.83253,
                "long": 6.86441
            }
        ],
        "photoUrl": "2013/2013-06-17-Mont-Blanc-par-les-Grands-Mulets"
    },
    {
        "title": "Engelhörner Silberfinger",
        "type": "Climb",
        "date": "2013-06-24",
        "points": [
            {
                "lat": 46.68202,
                "long": 8.17981
            }
        ],
        "photoUrl": "2013/2013-06-24-Engelhörner-Silberfinger-again"
    },
    {
        "title": "Dom",
        "type": "Hochtour",
        "date": "2013-06-30",
        "points": [
            {
                "lat": 46.10128,
                "long": 7.84767
            }
        ],
        "photoUrl": "2013/2013-06-30-Domd"
    },
    {
        "title": "Rosenlauistock",
        "type": "Climb",
        "date": "2013-07-06",
        "points": [
            {
                "lat": 46.67913,
                "long": 8.17027
            }
        ],
        "photoUrl": "2013/2013-07-06-More-Angels-Raeubereggae-und-Liftwing-Left"
    },
    {
        "title": "Salbit Westgrat",
        "type": "Climb",
        "date": "2013-07-14",
        "points": [
            {
                "lat": 46.68048,
                "long": 8.52906
            }
        ],
        "photoUrl": "2013/2013-07-14-Salbit-Westgrat"
    },
    {
        "title": "Gastlosen",
        "type": "Climb",
        "date": "2013-07-20",
        "points": [
            {
                "lat": 46.56126,
                "long": 7.26068
            }
        ],
        "photoUrl": "2013/2013-07-20-Gaschtlose-VII"
    },
    {
        "title": "Hanibal and Gross Bielenhorn",
        "type": "Climb",
        "date": "2013-07-28",
        "points": [
            {
                "lat": 46.59926,
                "long": 8.41965
            },
            {
                "lat": 46.60462,
                "long": 8.42656
            }
        ],
        "photoUrl": "2013/2013-07-28-Hanibal-and-Gr-Bielenhorn"
    },
    {
        "title": "Cheeseland AFK",
        "type": "Climb",
        "date": "2013-08-03",
        "points": [
            {
                "lat": 46.59926,
                "long": 8.41965
            },
            {
                "lat": 46.60462,
                "long": 8.42656
            },
            {
                "lat": 46.56126,
                "long": 7.26068
            },
            {
                "lat": 46.46042,
                "long": 7.64981
            }
        ],
        "photoUrl": "2013/2013-08-03-Cheeseland-AFK"
    },
    {
        "title": "Klein Wellhorn",
        "type": "Climb",
        "date": "2013-08-17",
        "points": [
            {
                "lat": 46.66517,
                "long": 8.15218
            }
        ],
        "photoUrl": "2013/2013-08-17-Klein-Wellhorn-Kundalini"
    },
    {
        "title": "Dent de Fenestral",
        "type": "Climb",
        "date": "2013-08-31",
        "points": [
            {
                "lat": 46.09649,
                "long": 6.95286
            }
        ],
        "photoUrl": "2013/2013-08-31-Dent-de-Fenestral"
    },
    {
        "title": "Hintisberg",
        "type": "Climb",
        "date": "2013-09-07",
        "points": [
            {
                "lat": 46.65854,
                "long": 7.94655
            }
        ],
        "photoUrl": "2013/2013-09-07-Hintisberg-II"
    },
    {
        "tracks": [
            "2013-10-24__Run__Lac_de_Joux__1.gpx",
            "2013-10-24__Run__Lac_de_Joux__2.gpx"
        ],
        "stravaUrl": [
            91040192,
            91045954
        ]
    },
    {
        "tracks": [
            "2013-10-25__Run__Lac_de_Joux.gpx"
        ],
        "stravaUrl": [
            91221854
        ]
    },
    {
        "title": "Charmey",
        "type": "Skitour",
        "date": "2013-12-01",
        "points": [
            {
                "lat": 46.58609,
                "long": 7.17908
            }
        ],
        "photoUrl": "2013/2013-12-01-Skitour-Charmey"
    },
    {
        "title": "Balmflue",
        "type": "Climb",
        "date": "2013-12-21",
        "points": [
            {
                "lat": 47.25368,
                "long": 7.54287
            }
        ],
        "photoUrl": "2013/2013-12-21-Saunatrip-Balmfluh"
    },
    {
        "title": "Gondo Simplon",
        "type": "Climb",
        "date": "2014-01-02",
        "points": [
            {
                "lat": 46.17014,
                "long": 8.03042
            },
            {
                "lat": 46.26167,
                "long": 8.07551
            },
            {
                "lat": 46.23352,
                "long": 7.98003
            },
            {
                "lat": 46.22221,
                "long": 7.98299
            }
        ],
        "photoUrl": "2014/2014-01-02-Silvester-Gondo-Simplon"
    },
    {
        "title": "Red Rocks",
        "type": "Climb",
        "date": "2014-01-16",
        "points": [
            {
                "lat": 36.13190,
                "long": -115.5016
            },
            {
                "lat": 36.16860,
                "long": -115.4947
            },
            {
                "lat": 36.10810,
                "long": -115.4894
            }
        ],
        "photoUrl": "2014/2014-01-16-Red-Rocks"
    },
    {
        "title": "Joshua Tree",
        "type": "Climb",
        "date": "2014-01-17",
        "points": [
            {
                "lat": 33.94180244714314,
                "long": -116.01525304870425
            }
        ],
        "photoUrl": "2014/2014-01-17-Joshua-Tree"
    },
    {
        "title": "Mont Rogneux",
        "type": "Skitour",
        "date": "2014-02-23",
        "points": [
            {
                "lat": 46.00954,
                "long": 7.23075
            }
        ],
        "photoUrl": "2014/2014-02-23-Mont-Rogneux"
    },
    {
        "title": "Bürglen",
        "type": "Skitour",
        "date": "2014-03-02",
        "points": [
            {
                "lat": 46.70303,
                "long": 7.43248
            }
        ],
        "photoUrl": "2014/2014-03-02-Bürgle"
    },
    {
        "title": "Galenstock",
        "type": "Skitour",
        "date": "2014-03-09",
        "points": [
            {
                "lat": 46.61262,
                "long": 8.41695
            }
        ],
        "photoUrl": "2014/2014-03-09-Galenstock"
    },
    {
        "title": "Pic de Grandval",
        "type": "Climb",
        "date": "2014-03-16",
        "points": [
            {
                "lat": 47.29378,
                "long": 7.42532
            }
        ],
        "photoUrl": "2014/2014-03-16-Pic-de-Grandval"
    },
    {
        "title": "Palombaggia",
        "type": "Bouldering",
        "date": "2014-04-20",
        "points": [
            {
                "lat": 41.55100680418424,
                "long": 9.316763935358631
            }
        ],
        "photoUrl": "2014/2014-04-20-Corsica-Day-1-Palombaggia-and-Bonifacio"
    },
    {
        "title": "Bavella",
        "type": "Climb",
        "date": "2014-04-21",
        "points": [
            {
                "lat": 41.81590387881894,
                "long": 9.245991423768581
            }
        ],
        "photoUrl": "2014/2014-04-21-Corsica-Day-2-Bavella"
    },
    {
        "title": "Oratoriu di A Madonna di Thiberine",
        "type": "Hike",
        "date": "2014-04-22",
        "points": [
            {
                "lat": 41.4065913924289,
                "long": 9.1243933619168
            }
        ],
        "photoUrl": "2014/2014-04-22-Corsica-Day-3-Random-Summit-Capineru"
    },
    {
        "title": "Capineru",
        "type": "Bouldering",
        "date": "2014-04-22",
        "points": [
            {
                "lat": 41.45728925686359,
                "long": 9.040080289033668
            }
        ],
        "photoUrl": "2014/2014-04-22-Corsica-Day-3-Random-Summit-Capineru"
    },
    {
        "title": "Torra Ghjenuvese di a Parata",
        "type": "Hike",
        "date": "2014-04-23",
        "points": [
            {
                "lat": 41.89533220775847,
                "long": 8.608421212978852
            }
        ],
        "photoUrl": "2014/2014-04-23-Corsica-Day-4-Ajaccio-et-Les-Iles-Sanguinaires"
    },
    {
        "title": "Restonica",
        "type": "Climb",
        "date": "2014-04-24",
        "points": [
            {
                "lat": 42.27825714627584,
                "long": 9.101962551547755
            }
        ],
        "photoUrl": "2014/2014-04-24-Corsica-Day-5-Restonica"
    },
    {
        "title": "Lumio",
        "type": "Bouldering",
        "date": "2014-04-25",
        "points": [
            {
                "lat": 42.58136797624949,
                "long": 8.802566002468293
            }
        ],
        "photoUrl": "2014/2014-04-25-Corsica-Day-6-Lumio-and-Calvi"
    },
    {
        "title": "Cheselenflue",
        "type": "Climb",
        "date": "2014-05-25",
        "points": [
            {
                "lat": 46.79370,
                "long": 8.26184
            }
        ],
        "photoUrl": "2014/2014-05-25-Cheselenflue"
    },
    {
        "title": "Klein- und Grosssimelistock",
        "type": "Climb",
        "date": "2014-06-07",
        "points": [
            {
                "lat": 46.68225,
                "long": 8.17912
            },
            {
                "lat": 46.68188,
                "long": 8.18093
            }
        ],
        "photoUrl": "2014/2014-06-07-Überschreitung-Klein-und-Grosssimelistock"
    },
    {
        "title": "Gross Bielenhorn Fliegender Akku",
        "type": "Climb",
        "date": "2014-06-22",
        "points": [
            {
                "lat": 46.60396,
                "long": 8.42627
            }
        ],
        "photoUrl": "2014/2014-06-22-Gr-Bielenhorn-Fliegender-Akku"
    },
    {
        "tracks": [
            "2014-07-05__Run__Uttigen-Neufeld__1.gpx",
            "2014-07-05__Run__Uttigen-Neufeld__2.gpx",
            "2014-07-05__Run__Uttigen-Neufeld__3.gpx"
        ],
        "stravaUrl": [
            161951787,
            161961649,
            161994869
        ]
    },
    {
        "tracks": [
            "2014-07-16__Run__Punta_di_Valdeserta.gpx"
        ],
        "photoUrl": "2014/2014-07-16-Schinhorn",
        "stravaUrl": [
            166648413
        ]
    },
    {
        "title": "Lagginhorn",
        "type": "Hochtour",
        "date": "2014-07-19",
        "points": [
            {
                "lat": 46.15707,
                "long": 8.00307
            }
        ],
        "photoUrl": "2014/2014-07-19-Lagginhorn"
    },
    {
        "title": "Swiss Alpine Marathon",
        "type": "Run",
        "date": "2014-07-26",
        "points": [
            {
                "lat": 46.68086,
                "long": 9.88438
            }
        ],
        "photoUrl": "2014/2014-07-26-Swiss-Alpine-Marathon-2014"
    },
    {
        "title": "Gross Bielenhorn Ürijam",
        "type": "Climb",
        "date": "2014-08-08",
        "points": [
            {
                "lat": 46.60291,
                "long": 8.43136
            },
            {
                "lat": 46.60037,
                "long": 8.43175
            }
        ],
        "photoUrl": "2014/2014-08-08-Ürijam"
    },
    {
        "title": "Inferno Halbmarathon",
        "type": "Run",
        "date": "2014-08-21",
        "points": [
            {
                "lat": 46.55733,
                "long": 7.83523
            }
        ]
    },
    {
        "title": "Montagna Baus Petit Cervin",
        "type": "Climb",
        "date": "2014-08-24",
        "points": [
            {
                "lat": 45.87114,
                "long": 7.15273
            }
        ],
        "photoUrl": "2014/2014-08-24-Montagna-Baus-Petit-Cervin"
    },
    {
        "title": "Bürglen",
        "type": "Hike",
        "date": "2014-09-14",
        "points": [
            {
                "lat": 46.70303,
                "long": 7.43248
            }
        ],
        "photoUrl": "2014/2014-09-14-Bürgle"
    },
    {
        "title": "Teufelswand Zeichen der Freundschaft",
        "type": "Climb",
        "date": "2014-09-27",
        "points": [
            {
                "lat": 46.65008,
                "long": 8.59751
            }
        ],
        "photoUrl": "2014/2014-09-27-Teufelswand-Zeichen-der-Freundschaft"
    },
    {
        "title": "Bürglen",
        "type": "Hike",
        "date": "2014-10-18",
        "points": [
            {
                "lat": 46.70303,
                "long": 7.43248
            }
        ],
        "photoUrl": "2014/2014-10-18-Bürgle"
    },
    {
        "title": "Wendenstöcke Spasspartout",
        "type": "Climb",
        "date": "2014-10-19",
        "points": [
            {
                "lat": 46.76373,
                "long": 8.40282
            }
        ],
        "photoUrl": "2014/2014-10-19-Wendenstöcke-Spasspartout"
    },
    {
        "title": "Wendenstöcke Excalibur",
        "type": "Climb",
        "date": "2014-11-01",
        "points": [
            {
                "lat": 46.75741,
                "long": 8.37843
            }
        ],
        "photoUrl": "2014/2014-11-01-Excalibur"
    },
    {
        "title": "Hintisberg",
        "type": "Climb",
        "date": "2014-11-02",
        "points": [
            {
                "lat": 46.65854,
                "long": 7.94655
            }
        ],
        "photoUrl": "2014/2014-11-02-Hintisberg-3"
    },
    {
        "title": "Fontaine Bleau",
        "type": "Bouldering",
        "date": "2015-04-07",
        "points": [
            {
                "lat": 48.3764623622089,
                "long": 2.5212738153900958
            }
        ],
        "photoUrl": "2015/2015-04-07-Fontaine-Bleau"
    },
    {
        "title": "20km de Lausanne",
        "type": "Run",
        "date": "2015-04-25",
        "points": [
            {
                "lat": 46.52257,
                "long": 6.63525
            }
        ]
    },
    {
        "title": "Roche des Nants",
        "type": "Climb",
        "date": "2015-06-20",
        "points": [
            {
                "lat": 47.26295,
                "long": 7.35353
            }
        ],
        "photoUrl": "2015/2015-06-20-Roche-des-Nants"
    },
    {
        "title": "Pfadflue",
        "type": "Climb",
        "date": "2015-06-28",
        "points": [
            {
                "lat": 46.57866,
                "long": 7.27382
            }
        ],
        "photoUrl": "2015/2015-06-28-Hallo-Marco"
    },
    {
        "title": "Galengratverschneidung",
        "type": "Climb",
        "date": "2015-07-05",
        "points": [
            {
                "lat": 46.60470,
                "long": 8.41378
            }
        ],
        "photoUrl": "2015/2015-07-05-Galengratverschneidung"
    },
    {
        "title": "Jegihorn",
        "type": "Climb",
        "date": "2015-07-12",
        "points": [
            {
                "lat": 46.15148,
                "long": 7.97030
            }
        ],
        "photoUrl": "2015/2015-07-12-Jegihorn"
    },
    {
        "title": "Gemmi Bike & Run",
        "type": "Bike",
        "date": "2015-07-18",
        "points": [
            {
                "lat": 46.38376,
                "long": 7.62377
            }
        ],
        "photoUrl": "2015/2015-07-18-Gemmi"
    },
    {
        "title": "Gemmi Bike & Run",
        "type": "Run",
        "date": "2015-07-18",
        "points": [
            {
                "lat": 46.39695,
                "long": 7.61285
            }
        ],
        "photoUrl": "2015/2015-07-18-Gemmi"
    },
    {
        "title": "Chli Bielenhorn Perrenoud",
        "type": "Climb",
        "date": "2015-08-02",
        "points": [
            {
                "lat": 46.59823,
                "long": 8.43492
            }
        ],
        "photoUrl": "2015/2015-08-02-Chli-Bielenhorn-Perrenoud"
    },
    {
        "title": "Inferno Halbmarathon",
        "type": "Run",
        "date": "2015-08-22",
        "points": [
            {
                "lat": 46.55733,
                "long": 7.83523
            }
        ],
        "photoUrl": "2015/2015-08-22-Inferno-Halbmarathon"
    },
    {
        "tracks": [
            "2015-08-22__Hike__Bietenhorn.gpx"
        ],
        "photoUrl": "2015/2015-08-22-Bietenhorn-Cheryl"
    },
    {
        "title": "Skitour",
        "type": "Climb",
        "date": "2016-01-17",
        "points": [
            {
                "lat": 46.20788,
                "long": 7.48046
            }
        ],
        "photoUrl": "2016/2016-01-17-Nax"
    },
    {
        "title": "Kandersteg",
        "type": "XC-Ski",
        "date": "2016-02-06",
        "points": [
            {
                "lat": 46.49083,
                "long": 7.67355
            }
        ],
        "photoUrl": "2016/2016-02-06-Kandersteg-X-Country-Skiing"
    },
    {
        "title": "Mittelallalin",
        "type": "Skitour",
        "date": "2016-03-16",
        "points": [
            {
                "lat": 46.05151,
                "long": 7.89737
            }
        ],
        "photoUrl": "2016/2016-03-16-Mittelallalin-x-2"
    },
    {
        "title": "Gross Fiescherhorn und Finsteraarhorn",
        "type": "Hochtour",
        "date": "2016-03-19",
        "points": [
            {
                "lat": 46.55070,
                "long": 8.06248
            },
            {
                "lat": 46.53868,
                "long": 8.12494
            }
        ],
        "photoUrl": "2016/2016-03-19-Finsteraarhorn-almost"
    },
    {
        "tracks": [
            "2016-04-10__Hike__Lavaux.gpx"
        ],
        "photoUrl": "2016/2016-04-10-Lavaux",
        "stravaUrl": [
            541336013
        ]
    },
    {
        "title": "Patrouille des Glaciers",
        "type": "Skitour",
        "date": "2016-04-20",
        "points": [
            {
                "lat": 45.98925,
                "long": 7.57516
            },
            {
                "lat":46.06373,
                "long": 7.35811
            }
        ],
        "photoUrl": "2016/2016-04-20-Patrouille-des-Glaciers"
    },
    {
        "title": "Moléson",
        "type": "Hike",
        "date": "2016-06-04",
        "points": [
            {
                "lat": 46.54649,
                "long": 7.01803
            }
        ]
    },
    {
        "tracks": [
            "2016-06-12__Hike__Ochsen.gpx"
        ],
        "photoUrl": "2016/2016-06-12-Ochsen",
        "stravaUrl": [
            607356182
        ]
    },
    {
        "tracks": [
            "2016-06-26__Run__Ochse_u_Gaentu.gpx"
        ],
        "photoUrl": "2016/2016-06-26-Ochse-u-Gäntu",
        "stravaUrl": [
            621749606
        ]
    },
    {
        "title": "La Tour d'Aï",
        "type": "Hike",
        "date": "2016-07-01",
        "points": [
            {
                "lat": 46.37216,
                "long": 7.00195
            }
        ],
        "photoUrl": "2016/2016-07-01-Tour-dAi"
    },
    {
        "title": "Rosenlauistock",
        "type": "Climb",
        "date": "2016-07-09",
        "points": [
            {
                "lat": 46.67913,
                "long": 8.17027
            }
        ],
        "photoUrl": "2016/2016-07-09-Rosenlauistock"
    },
    {
        "tracks": [
            "2016-07-10__Hike__Stockhorn.gpx"
        ],
        "photoUrl": "2016/2016-07-10-Stockhorn",
        "stravaUrl": [
            636561356
        ]
    },
    {
        "title": "Dent de Ruth Pilier Diehl",
        "type": "Climb",
        "date": "2016-07-16",
        "points": [
            {
                "lat": 46.55171,
                "long": 7.23438
            }
        ],
        "photoUrl": "2016/2016-07-16-Pilier-Diehl-Attempt"
    },
    {
        "tracks": [
            "2016-07-17__Hike__Niesen.gpx"
        ],
        "photoUrl": "2016/2016-07-17-Niesen",
        "stravaUrl": [
            643799650
        ]
    },
    {
        "tracks": [
            "2016-07-19__Bike__Novena-Gottardo-Furka.gpx"
        ],
        "photoUrl": "2016/2016-07-19-Novena-Gottardo-Furka",
        "stravaUrl": [
            646404879
        ]
    },
    {
        "tracks": [
            "2016-07-24__Hike__Albristhore.gpx"
        ],
        "photoUrl": "2016/2016-07-24-Albristhore",
        "stravaUrl": [
            651956173
        ]
    },
    {
        "tracks": [
            "2016-08-01__Hike__Rigi_via_Füdlibagge.gpx"
        ],
        "photoUrl": "2016/2016-08-01-Rigi-via-Füdlibagge",
        "stravaUrl": [
            661139410
        ]
    },
    {
        "tracks": [
            "2016-08-03__Run__Brienzergrat_mit_Bensch.gpx"
        ],
        "photoUrl": "2016/2016-08-03-Hardergrat-2",
        "stravaUrl": [
            663456771
        ]
    },
    {
        "tracks": [
            "2016-08-08__Hike__Unteres_Schinhorn.gpx"
        ],
        "photoUrl": "2016/2016-08-11-Binn",
        "stravaUrl": [
            669006444
        ]
    },
    {
        "tracks": [
            "2016-08-10__Hike__Schweifegrat.gpx"
        ],
        "photoUrl": "2016/2016-08-11-Binn",
        "stravaUrl": [
            671289741
        ]
    },
    {
        "title": "Motteux Péteux et Dent de Ruth",
        "type": "Climb",
        "date": "2016-08-13",
        "points": [
            {
                "lat": 46.55215,
                "long": 7.23347
            }
        ],
        "photoUrl": "2016/2016-08-13-Motteux-Péteux-Dent-de-Ruth"
    },
    {
        "tracks": [
            "2016-08-14__Run__Home-Bern.gpx"
        ],
        "stravaUrl": [
            676007064
        ]
    },
    {
        "title": "Joshua Tree National Park",
        "type": "Hike",
        "date": "2016-09-17",
        "points": [
            {
                "lat": 33.9941888608831,
                "long": -116.05898347890584
            }
        ],
        "photoUrl": "2016/2016-09-17-Joshua-Tree"
    },
    {
        "title": "Zion National Park",
        "type": "Hike",
        "date": "2016-09-19",
        "points": [
            {
                "lat": 37.295056250793316,
                "long": -112.94858331192307
            },
            {
                "lat": 37.27825067531318,
                "long": -112.94054634653554
            },
            {
                "lat": 37.25742050243523,
                "long": -112.96650440381443
            },
            {
                "lat": 37.26811722953524,
                "long": -112.938455737926
            }
        ],
        "photoUrl": "2016/2016-09-19-Zion"
    },
    {
        "tracks": [
            "2016-11-20__Hike__Ovronnaz.gpx"
        ],
        "photoUrl": "2016/2016-11-20-Ovronnaz"
    },
    {
        "tracks": [
            "2016-11-20__Snowshoe__Loutse.gpx"
        ],
        "photoUrl": "2016/2016-11-20-Ovronnaz"
    },
    {
        "tracks": [
            "2017-01-29__Skitour__Alpiglenmäre__1.gpx",
            "2017-01-29__Skitour__Alpiglenmäre__2.gpx"
        ],
        "photoUrl": "2017/2017-01-29-Alpiglemaeren",
        "stravaUrl": [
            848506971,
            848506998
        ]
    },
    {
        "tracks": [
            "2017-01-31__Skitour__Col_des_Ecandies_Attempt.gpx"
        ],
        "stravaUrl": [
            851760180
        ]
    },
    {
        "tracks": [
            "2017-02-01__Skitour__Pointe_Ronde.gpx"
        ],
        "stravaUrl": [
            851761020
        ]
    },
    {
        "tracks": [
            "2017-02-02__Skitour__Dent_de_Morcles.gpx"
        ],
        "stravaUrl": [
            852763906
        ]
    },
    {
        "tracks": [
            "2017-02-04__Skitour__Braunwald.gpx"
        ],
        "stravaUrl": [
            855202011
        ]
    },
    {
        "tracks": [
            "2017-02-11__Skitour__Monts_Chevreuils.gpx"
        ],
        "photoUrl": "2017-02-11-Monts-Chevreuils",
        "stravaUrl": [
            867621810
        ]
    },
    {
        "tracks": [
            "2017-02-14__Skitour__Tête_Noire.gpx"
        ],
        "photoUrl": "2017/2017-02-14-Tête-Noir",
        "stravaUrl": [
            867622760
        ]
    },
    {
        "tracks": [
            "2017-03-17__Run__Uttigen-Home.gpx"
        ],
        "stravaUrl": [
            903813692
        ]
    },
    {
        "title": "Pic de Crémines",
        "type": "Climb",
        "date": "2017-04-08",
        "points": [
            {
                "lat": 47.29383,
                "long": 7.42999
            }
        ],
        "photoUrl": "2017/2017-04-08-Grandval-with-Cheryl"
    },
    {
        "tracks": [
            "2017-04-27__Run__Lyon.gpx"
        ],
        "stravaUrl": [
            972849589
        ]
    },
    {
        "tracks": [
            "2017-05-06__Run__Sola.gpx"
        ],
        "photoUrl": "2017/2017-05-07-Sola",
        "stravaUrl": [
            972850007
        ]
    },
    {
        "tracks": [
            "2017-05-13__Hike__Capanna_Albagno__1.gpx",
            "2017-05-13__Hike__Capanna_Albagno__2.gpx"
        ],
        "photoUrl": "2017-05-13-Capanna-Albagno",
        "stravaUrl": [
            984618858,
            984620438
        ]
    },
    {
        "tracks": [
            "2017-05-26__Run__Grosser_Mythen__1.gpx",
            "2017-05-26__Run__Grosser_Mythen__2.gpx"
        ],
        "photoUrl": "2017/2017-05-26-Grosser-Mythen",
        "stravaUrl": [
            1006840027,
            1006840967
        ]
    },
    {
        "tracks": [
            "2017-05-30__Run__Grosser_und_Kleiner_Mythen.gpx"
        ],
        "stravaUrl": [
            1012819157
        ]
    },
    {
        "tracks": [
            "2017-06-07__Run__Forchlauf.gpx"
        ],
        "stravaUrl": [
            1025518586
        ]
    },
    {
        "tracks": [
            "2017-06-08__Run__Mythen_Kalberstöckli_und_Schafweg.gpx"
        ],
        "photoUrl": "2017/2017-06-08-Mythen-Kalberstöckli-und-Schafweg",
        "stravaUrl": [
            1026614076
        ]
    },
    {
        "title": "Gletschhorn",
        "type": "Climb",
        "date": "2017-06-11",
        "points": [
            {
                "lat": 46.61958,
                "long": 8.43884
            }
        ],
        "photoUrl": "2017/2017-06-11-Gletschhorn"
    },
    {
        "title": "Bollenwees und Fähnligipfel",
        "type": "Climb",
        "date": "2017-06-19",
        "points": [
            {
                "lat": 47.25530,
                "long": 9.41295
            },
            {
                "lat": 47.25511,
                "long": 9.41427
            }
        ],
        "photoUrl": "2017/2017-06-19-Bollenwees"
    },
    {
        "title": "Zinalrothorn",
        "type": "Hochtour",
        "date": "2017-06-26",
        "points": [
            {
                "lat": 46.06481,
                "long": 7.69012
            }
        ],
        "photoUrl": "2017/2017-06-26-Zinalrothorn"
    },
    {
        "title": "Ueschenen",
        "type": "Climb",
        "date": "2017-07-04",
        "points": [
            {
                "lat": 46.48227,
                "long": 7.63849
            }
        ],
        "photoUrl": "2017/2017-07-04-Ueschenen"
    },
    {
        "tracks": [
            "2017-07-06__Run__Grosser_Mythen__1.gpx",
            "2017-07-06__Run__Grosser_Mythen__2.gpx"
        ],
        "stravaUrl": [
            1071119809,
            1071119824
        ]
    },
    {
        "tracks": [
            "2017-07-08__Hike__Ortstock.gpx"
        ],
        "photoUrl": "2017/2017-07-08-Ortstock",
        "stravaUrl": [
            1073759074
        ]
    },
    {
        "title": "Salbit with Dan",
        "type": "Climb",
        "date": "2017-07-17",
        "points": [
            {
                "lat": 46.68048,
                "long": 8.52906
            }
        ],
        "photoUrl": "2017/2017-07-17-Salbit-with-Dan-Co"
    },
    {
        "tracks": [
            "2017-07-30__Hike__Binntalhütte.gpx"
        ],
        "photoUrl": "2017/2017-07-31-Ofenhorn"
    },
    {
        "tracks": [
            "2017-07-31__Hochtour__Ofenhorn.gpx"
        ],
        "photoUrl": "2017/2017-07-31-Ofenhorn"
    },
    {
        "title": "Brueggler",
        "type": "Climb",
        "date": "2017-08-13",
        "points": [
            {
                "lat": 47.11760,
                "long": 8.98448
            }
        ],
        "photoUrl": "2017/2017-08-13-Brueggler"
    },
    {
        "tracks": [
            "2017-08-19__Run__Mountain_Man_Leg_3.gpx"
        ],
        "photoUrl": "2017-08-19-Mountain-Man-Hochstollen",
        "stravaUrl": [
            1141721094
        ]
    },
    {
        "title": "Winteregg",
        "type": "Climb",
        "date": "2017-08-27",
        "points": [
            {
                "lat": 46.46042,
                "long": 7.64981
            }
        ],
        "photoUrl": "2017/2017-08-27-Winteregg"
    },
    {
        "title": "Lumio",
        "type": "Bouldering",
        "date": "2017-09-04",
        "points": [
            {
                "lat": 42.58136797624949,
                "long": 8.802566002468293
            }
        ],
        "photoUrl": "2017/2017-09-15-Corsica"
    },
    {
        "title": "Tour de Turghiu/Cappo Rosso",
        "type": "Hike",
        "date": "2017-09-06",
        "points": [
            {
                "lat": 42.23656,
                "long": 8.55212
            }
        ],
        "photoUrl": "2017/2017-09-15-Corsica"
    },
    {
        "title": "Capineru",
        "type": "Bouldering",
        "date": "2017-09-10",
        "points": [
            {
                "lat": 41.45728925686359,
                "long": 9.040080289033668
            }
        ],
        "photoUrl": "2017/2017-09-15-Corsica"
    },
    {
        "title": "Punta Spenicazzia",
        "type": "Climb",
        "date": "2017-09-13",
        "points": [
            {
                "lat": 42.25265,
                "long": 9.09106
            }
        ],
        "photoUrl": "2017/2017-09-15-Corsica"
    },
    {
        "title": "Lac de Capitellu",
        "type": "Hike",
        "date": "2017-09-14",
        "points": [
            {
                "lat": 42.21215,
                "long": 9.01180
            }
        ],
        "photoUrl": "2017/2017-09-15-Corsica"
    },
    {
        "tracks": [
            "2017-10-15__Hike__Brienzergrat__1.gpx",
            "2017-10-15__Hike__Brienzergrat__2.gpx"
        ],
        "photoUrl": "2017-10-15-Brienzergrat",
        "stravaUrl": [
            1234055406,
            1234055423
        ]
    },
    {
        "tracks": [
            "2017-11-04__Hike__Mattstock.gpx"
        ],
        "stravaUrl": [
            1261006940
        ]
    },
    {
        "title": "Morcote",
        "type": "Hike",
        "date": "2018-03-25",
        "points": [
            {
                "lat": 45.92304,
                "long": 8.91414
            }
        ],
        "photoUrl": "2018/2018-03-25-Morcote"
    },
    {
        "tracks": [
            "2018-04-01__Run__Reichenbachwald.gpx"
        ],
        "stravaUrl": [
            1484007803
        ]
    },
    {
        "tracks": [
            "2018-04-02__Hike__Giessbachfälle.gpx"
        ]
    },
    {
        "tracks": [
            "2018-04-08__Hike__Kronberg__1.gpx",
            "2018-04-08__Hike__Kronberg__2.gpx"
        ],
        "photoUrl": "2018/2018-04-08-Kronberg",
        "stravaUrl": [
            1497552736,
            1497552752
        ]
    },
    {
        "tracks": [
            "2018-04-29__Run__Aarelauf.gpx"
        ],
        "stravaUrl": [
            1539332682
        ]
    },
    {
        "tracks": [
            "2018-05-05__Run__Sola.gpx"
        ],
        "photoUrl": "2018/2018-05-05-Sola",
        "stravaUrl": [
            1550276700
        ]
    },
    {
        "tracks": [
            "2018-05-06__Hike__Kleiner_Mythen.gpx"
        ],
        "photoUrl": "2018/2018-05-06-Kleiner-Mythen",
        "stravaUrl": [
            1553117334
        ]
    },
    {
        "tracks": [
            "2018-05-11__Skitour__Chandolin_Schwarzhorn__1.gpx",
            "2018-05-11__Skitour__Chandolin_Schwarzhorn__2.gpx"
        ],
        "photoUrl": "2018/2018-05-12-A-la-recherche-de-la-neige",
        "stravaUrl": [
            1583834089,
            1583834147
        ]
    },
    {
        "tracks": [
            "2018-05-12__Skitour__Arolla_Plan_Bertol.gpx"
        ],
        "photoUrl": "2018/2018-05-12-A-la-recherche-de-la-neige",
        "stravaUrl": [
            1583834182
        ]
    },
    {
        "tracks": [
            "2018-05-19__Hike__Hoher_Kasten_Attempt.gpx"
        ],
        "photoUrl": "2018/2018-05-19-Brülisau",
        "stravaUrl": [
            1583808601
        ]
    },
    {
        "title": "Mittagflue",
        "type": "Hike",
        "date": "2018-06-03",
        "points": [
            {
                "lat": 46.63592,
                "long": 7.36723
            }
        ],
        "photoUrl": "2018/2018-06-03-Mittagflue"
    },
    {
        "tracks": [
            "2018-06-17__Run__Stieregrat_Fail.gpx"
        ],
        "photoUrl": "2018/2018-06-17-Stierengrat-Fail",
        "stravaUrl": [
            1644287662
        ]
    },
    {
        "tracks": [
            "2018-06-24__Hike__Pilatus__1.gpx",
            "2018-06-24__Hike__Pilatus__2.gpx"
        ],
        "photoUrl": "2018/2018-06-24-Pilatus",
        "stravaUrl": [
            1661529480,
            1661529591
        ]
    },
    {
        "tracks": [
            "2018-06-30__Hike__Almagellerhütte__1.gpx",
            "2018-06-30__Hike__Almagellerhütte__2.gpx"
        ],
        "photoUrl": "2018/2018-07-01-Weissmies",
        "stravaUrl": [
            1674655482,
            1674655465
        ]
    },
    {
        "tracks": [
            "2018-07-01__Hochtour__Weissmies__1.gpx",
            "2018-07-01__Hochtour__Weissmies__2.gpx"
        ],
        "photoUrl": "2018/2018-07-01-Weissmies",
        "stravaUrl": [
            1674655566,
            1674655567
        ]
    },
    {
        "title": "Priendler",
        "type": "Climb",
        "date": "2018-07-08",
        "points": [
            {
                "lat": 46.74047,
                "long": 8.42137
            }
        ],
        "photoUrl": "2018/2018-07-08-Priendler"
    },
    {
        "title": "Bockmattli - Namenlose Kante",
        "type": "Climb",
        "date": "2018-08-01",
        "points": [
            {
                "lat": 47.09923,
                "long": 8.95482
            }
        ],
        "photoUrl": "2018/2018-08-01-Bockmattli-Namenlose-Kante"
    },
    {
        "tracks": [
            "2018-08-18__Hike__Mythen_Schafweg__1.gpx",
            "2018-08-18__Hike__Mythen_Schafweg__2.gpx"
        ],
        "photoUrl": "2018/2018-08-18-Mythen-Schafweg",
        "stravaUrl": [
            1780803148,
            1780803139
        ]
    },
    {
        "tracks": [
            "2018-08-26__Hike__Lais_da_Macun.gpx"
        ],
        "photoUrl": "2018/2018-08-26-Lais-da-Macun",
        "stravaUrl": [
            1799171276
        ]
    },
    {
        "tracks": [
            "2018-09-02__Hike__Vanil_Noir.gpx"
        ],
        "photoUrl": "2018/2018-09-02-Vanil-Noir",
        "stravaUrl": [
            1825709796
        ]
    },
    {
        "tracks": [
            "2018-09-08__Hike__Capanna_Campo_Tencia.gpx"
        ],
        "photoUrl": "2018/2018-09-09-Campo-Tencia",
        "stravaUrl": [
            1831004926
        ]
    },
    {
        "tracks": [
            "2018-09-09__Hike__Pizzo_Campo_Tencia__1.gpx",
            "2018-09-09__Hike__Pizzo_Campo_Tencia__2.gpx"
        ],
        "photoUrl": "2018/2018-09-09-Campo-Tencia",
        "stravaUrl": [
            1831004989,
            1831004984
        ]
    },
    {
        "tracks": [
            "2018-09-15__Hike__Piz_Mezdi_Pontresina.gpx"
        ],
        "photoUrl": "2018/2018-09-16-Pontresina",
        "stravaUrl": [
            1846643154
        ]
    },
    {
        "tracks": [
            "2018-09-16__Hike__Piz_Languard_Fuorcla_Muragl.gpx"
        ],
        "photoUrl": "2018/2018-09-16-Pontresina",
        "stravaUrl": [
            1846643179
        ]
    },
    {
        "tracks": [
            "2018-09-22__Hike__Pizzo_Cristallina__1.gpx",
            "2018-09-22__Hike__Pizzo_Cristallina__2.gpx",
            "2018-09-22__Hike__Pizzo_Cristallina__3.gpx"
        ],
        "photoUrl": "2018/2018-09-23-Cristallina",
        "stravaUrl": [
            1867479481,
            1867479505,
            1867479545
        ]
    },
    {
        "tracks": [
            "2018-09-23__Hike__Lago_Nero_and_Val_del_Coro.gpx"
        ],
        "photoUrl": "2018/2018-09-23-Cristallina",
        "stravaUrl": [
            1867479623
        ]
    },
    {
        "tracks": [
            "2018-10-06__Hike__Le_Luisin.gpx"
        ],
        "photoUrl": "2018/2018-10-06-Le-Luisin",
        "stravaUrl": [
            1889812419
        ]
    },
    {
        "tracks": [
            "2018-10-22__Hike__Brienzergrat_Variation.gpx"
        ],
        "photoUrl": "2018/2018-10-22-Brienzergrat",
        "stravaUrl": [
            1923441507
        ]
    },
    {
        "tracks": [
            "2018-11-04__Hike__Speer.gpx"
        ],
        "stravaUrl": [
            1946038122
        ]
    },
    {
        "tracks": [
            "2018-11-18__Hike__Palis_Nideri_Zuestoll.gpx"
        ],
        "photoUrl": "2018/2018-11-18-Zuestoll",
        "stravaUrl": [
            1972853564
        ]
    },
    {
        "tracks": [
            "2018-12-09__Hike__Monte_Boglia.gpx"
        ],
        "photoUrl": "2018/2018-12-09-Gandria-Monte-Boglia",
        "stravaUrl": [
            2017228079
        ]
    },
    {
        "tracks": [
            "2019-01-12__Skitour__Monts_Chevreuils.gpx"
        ],
        "photoUrl": "2019/2019-01-12-Monts-Chevreuils",
        "stravaUrl": [
            2073401693
        ]
    },
    {
        "tracks": [
            "2019-01-19__Skitour__Braunwald.gpx"
       ]
    },
    {
        "tracks": [
            "2019-01-20__Skitour__Fil_da_Rueun.gpx"
        ],
        "photoUrl": "2019/2019-01-20-Fil-da-Rueun",
        "stravaUrl": [
            2094823108
        ]
    },
    {
        "tracks": [
            "2019-01-27__Skitour__Chrüz_Sankt_Antönien.gpx"
        ],
        "photoUrl": "2019/2019-01-27-Chrüz-St-Antönien",
        "stravaUrl": [
            2107441780
        ]
    },
    {
        "tracks": [
            "2019-02-02__Skitour__Stockberg.gpx"
        ],
        "photoUrl": "2019/2019-02-02-Stockberg",
        "stravaUrl": [
            2119647198
        ]
    },
    {
        "tracks": [
            "2019-02-09__Skitour__Um_Su_Lumbrein.gpx"
        ],
        "photoUrl": "2019/2019-02-09-Um-Su-Lumbrein",
        "stravaUrl": [
            2135095562
        ]
    },
    {
        "tracks": [
            "2019-02-16__Skitour__Erdisgulmen__1.gpx",
            "2019-02-16__Skitour__Erdisgulmen__2.gpx"
        ],
        "photoUrl": "2019/2019-02-16-Erdisgulmen",
        "stravaUrl": [
            2156389361,
            2156389359
        ]
    },
    {
        "tracks": [
            "2019-02-17__Skitour__Mittaghorn.gpx"
        ],
        "photoUrl": "2019/2019-02-17-Splügen-Mittaghorn",
        "stravaUrl": [
            2156389412
        ]
    },
    {
        "tracks": [
            "2019-03-16__Skitour__Parpeinahorn.gpx"
        ],
        "photoUrl": "2019/2019-03-16-Parpeinahorn",
        "stravaUrl": [
            2220921438
        ]
    },
    {
        "tracks": [
            "2019-03-17__Snowshoe__Dreibündenstein.gpx"
       ]
    },
    {
        "tracks": [
            "2019-04-06__Skitour__Munt_Griatschouls.gpx"
        ],
        "photoUrl": "2019/2019-04-06-S-Chanf",
        "stravaUrl": [
            2270801561
        ]
    },
    {
        "tracks": [
            "2019-04-07__Hike__Felsenegg.gpx"
        ],
        "stravaUrl": [
            2272091306
        ]
    },
    {
        "tracks": [
            "2019-04-08__Skitour__Davos_Jatzhütte.gpx"
       ]
    },
    {
        "tracks": [
            "2019-04-13__Hike__Walensee.gpx"
        ],
        "stravaUrl": [
            2290492074
        ]
    },
    {
        "tracks": [
            "2019-04-20__Skitour__Simplon_Breithorn.gpx"
        ],
        "photoUrl": "2019/2019-04-20-Simplon-Breithorn",
        "stravaUrl": [
            2308196830
        ]
    },
    {
        "tracks": [
            "2019-04-21__Skitour__Mase.gpx"
        ],
        "photoUrl": "2019/2019-04-21-Mase",
        "stravaUrl": [
            2308196873
        ]
    },
    {
        "tracks": [
            "2019-04-22__Hike__Reichebachwald.gpx"
        ],
        "photoUrl": "2019/2019-04-22-Zendermaetteli-Dinner",
        "stravaUrl": [
            2310296038
        ]
    },
    {
        "tracks": [
            "2019-05-30__Hike__Grosser_und_Kleiner_Mythen.gpx"
        ],
        "stravaUrl": [
            2460668508
        ]
    },
    {
        "tracks": [
            "2019-06-08__Hike__Capanna_Adula.gpx"
        ],
        "photoUrl": "2019/2019-06-09-Adula",
        "stravaUrl": [
            2460668668
        ]
    },
    {
        "tracks": [
            "2019-06-09__Hike__Val_Carassin.gpx"
        ],
        "photoUrl": "2019/2019-06-09-Adula",
        "stravaUrl": [
            2460668725
        ]
    },
    {
        "tracks": [
            "2019-06-15__Hike__Stockhorn_M1a_Reunion.gpx"
        ],
        "photoUrl": "2019/2019-06-15-M1a-Reunion",
        "stravaUrl": [
            2460668765
        ]
    },
    {
        "tracks": [
            "2019-06-23__Hike__Scenic_Trail.gpx"
        ],
        "photoUrl": "2019/2019-06-23-Scenic-Trail",
        "stravaUrl": [
            2475365375
        ]
    },
    {
        "tracks": [
            "2019-06-30__Hike__Ferdenrothorn.gpx"
        ],
        "photoUrl": "2019/2019-06-30-Ferdenrothorn",
        "stravaUrl": [
            2493050069
        ]
    },
    {
        "tracks": [
            "2019-07-02__Hike__Torrenthorn.gpx"
        ],
        "photoUrl": "2019/2019-07-02-Torrenthorn",
        "stravaUrl": [
            2498041441
        ]
    },
    {
        "tracks": [
            "2019-07-03__Run__Gemmi_Running.gpx"
        ],
        "photoUrl": "2019/2019-07-03-Gemmi-Running-und-Plattenhörner",
        "stravaUrl": [
            2500740536
        ]
    },
    {
        "tracks": [
            "2019-07-03__Hike__Plattenhörner.gpx"
        ],
        "photoUrl": "2019/2019-07-03-Gemmi-Running-und-Plattenhörner",
        "stravaUrl": [
            2500740540
        ]
    },
    {
        "tracks": [
            "2019-07-04__Hike__Alte_Gemmi.gpx"
        ],
        "photoUrl": "2019/2019-07-04-Alte-Gemmi",
        "stravaUrl": [
            2503828637
        ]
    },
    {
        "tracks": [
            "2019-07-05__Hike__Wysse_See__1.gpx",
            "2019-07-05__Hike__Wysse_See__2.gpx"
        ],
        "photoUrl": "2019/2019-07-05-Wysse-See",
        "stravaUrl": [
            2506518114,
            2506518184
        ]
    },
    {
        "tracks": [
            "2019-07-06__Hike__Leukerbad-Sunnbühl.gpx"
        ],
        "photoUrl": "2019/2019-07-06-Leukerbad-Sunnbüel",
        "stravaUrl": [
            2509306285 
        ]
    },
    {
        "tracks": [
            "2019-07-18__Hike__Grand_Teton_Cascade_Canyon.gpx"
        ],
        "photoUrl": "2019/2019-07-19-Grand-Teton",
        "stravaUrl": [
            2544326100
        ]
    },
    {
        "tracks": [
            "2019-07-19__Hike__Grand_Teton_Taggart_and_Bradley_Lakes.gpx"
        ],
        "photoUrl": "2019/2019-07-19-Grand-Teton",
        "stravaUrl": [
            2546706830
        ]
    },
    {
        "tracks": [
            "2019-07-21__Hike__Fiery_Furnace.gpx"
        ],
        "photoUrl": "2019/2019-07-22-Arches",
        "stravaUrl": [
            2551853979
        ]
    },
    {
        "tracks": [
            "2019-08-01__Hike__Vorder_Glärnisch.gpx"
        ],
        "photoUrl": "2019/2019-08-01-Vorder-Glärnisch",
        "stravaUrl": [
            2582283606
        ]
    },
    {
        "tracks": [
            "2019-08-03__Run__Niesengrat_Light.gpx"
        ],
        "photoUrl": "2019/2019-08-03-Niesengrat-Light",
        "stravaUrl": [
            2587292629
        ]
    },
    {
        "tracks": [
            "2019-08-04__Run__Tiefenau-Bern.gpx"
        ],
        "stravaUrl": [
            2590486558
        ]
    },
    {
        "tracks": [
            "2019-08-03__Hike__Rohrbachstein.gpx"
        ],
        "photoUrl": "2019/2019-08-03-Rohrbachstein"
    },
    {
        "tracks": [
            "2019-08-17__Hike__Cadlimo_1.gpx"
        ],
        "photoUrl": "2019/2019-08-18-Cadlimo",
        "stravaUrl": [
            2630973677
        ]
    },
    {
        "tracks": [
            "2019-08-18__Hike__Cadlimo_2_Piz_Borel.gpx"
        ],
        "photoUrl": "2019/2019-08-18-Cadlimo",
        "stravaUrl": [
            2630973692
        ]
    },
    {
        "tracks": [
            "2019-08-24__Hike__Damma_Hike_1.gpx"
        ],
        "photoUrl": "2019/2019-08-26-Damma-Hike",
        "stravaUrl": [
            2654195010
        ]
    },
    {
        "tracks": [
            "2019-08-25__Hike__Damma_Hike_2.gpx"
        ],
        "photoUrl": "2019/2019-08-26-Damma-Hike",
        "stravaUrl": [
            2654195046
        ]
    },
    {
        "tracks": [
            "2019-08-26__Hike__Damma_Hike_3__1.gpx",
            "2019-08-26__Hike__Damma_Hike_3__2.gpx"
        ],
        "photoUrl": "2019/2019-08-26-Damma-Hike",
        "stravaUrl": [
            2654195102,
            2654195089
        ]
    },
    {
        "tracks": [
            "2019-09-08__Hike__Bifertenhütte_1.gpx"
        ],
        "photoUrl": "2019/2019-09-09-Bifertenhütte",
        "stravaUrl": [
            2693881383
        ]
    },
    {
        "tracks": [
            "2019-09-09__Hike__Bifertenhütte_2.gpx"
        ],
        "photoUrl": "2019/2019-09-09-Bifertenhütte",
        "stravaUrl": [
            2693881392
        ]
    },
    {
        "tracks": [
            "2019-09-14__Hike__Barrhörner_1.gpx"
        ],
        "photoUrl": "2019/2019-09-15-Barrhorn",
        "stravaUrl": [
            2712334347
        ]
    },
    {
        "tracks": [
            "2019-09-15__Hike__Barrhörner_2__1.gpx",
            "2019-09-15__Hike__Barrhörner_2__2.gpx"
        ],
        "photoUrl": "2019/2019-09-15-Barrhorn",
        "stravaUrl": [
            2712334447,
            2712334372
        ]
    },
    {
        "title": "Ponte Brolla & Quarzo",
        "type": "Climb",
        "date": "2019-09-24",
        "points": [
            {
                "lat": 46.18909,
                "long": 8.75189
            },
            {
                "lat": 46.18839,
                "long": 8.76052
            }
        ],
        "photoUrl": "2019/2019-09-24-Alison-and-Ponte-Brolla"
    },
    {
        "tracks": [
            "2019-09-26__Hike__Oeschinensee.gpx"
        ],
        "photoUrl": "2019/2019-09-26-Oeschinensee"
    },
    {
        "tracks": [
            "2019-10-13__Hike__Brienzergrat.gpx"
        ],
        "photoUrl": "2019/2019-10-13-Brienzergrat",
        "stravaUrl": [
            2786640538
        ]
    },
    {
        "tracks": [
            "2019-10-26__Hike__Hoher_Kasten_und_Saxer_First.gpx"
        ],
        "photoUrl": "2019/2019-10-26-Hoher-Kasten",
        "stravaUrl": [
            2819068305
        ]
    },
    {
        "title": "Balmflue",
        "type": "Climb",
        "date": "2019-10-27",
        "points": [
            {
                "lat": 47.25368,
                "long": 7.54287
            }
        ],
        "photoUrl": "2019/2019-10-27-Balmflue"
    },
    {
        "tracks": [
            "2019-11-30__Hike__Monte_Boglia__1.gpx",
            "2019-11-30__Hike__Monte_Boglia__2.gpx"
        ],
        "photoUrl": "2019/2019-11-30-Monte-Boglia",
        "stravaUrl": [
            2902601669,
            2902601703
        ]
    },
    {
        "tracks": [
            "2020-01-19__Skitour__Fanenstock.gpx"
        ],
        "stravaUrl": [
            3026197426
        ],
        "photoUrl": "2020/2020-01-19-Fanenstock"
    },
    {
        "tracks": [
            "2020-01-26__Skitour__Bürglen.gpx"
        ],
        "photoUrl": "2020/2020-01-26-Buergle",
        "stravaUrl": [
            3045391137
        ]
    },
    {
        "tracks": [
            "2020-02-15__Skitour__Lämmerenhütte.gpx"
        ],
        "photoUrl": "2020/2020-02-16-Wildstrubel",
        "stravaUrl": [
            3106461613
        ]
    },
    {
        "tracks": [
            "2020-02-16__Skitour__Wildstrubel.gpx"
        ],
        "photoUrl": "2020/2020-02-16-Wildstrubel",
        "stravaUrl": [
            3106461659
        ]
    },
    {
        "tracks": [
            "2020-03-01__Skitour__Chörbschhorn.gpx"
        ],
        "photoUrl": "2020/2020-03-01-Chörbschhorn",
        "stravaUrl": [
            3146130479
        ]
    },
    {
        "tracks": [
            "2020-03-07__Skitour__Albert-Heim-Hütte_via_Schafberg.gpx"
        ],
        "photoUrl": "2020/2020-03-07-Oberi-Bieleluecke",
        "stravaUrl": [
            3166783948
        ]
    },
    {
        "tracks": [
            "2020-03-08__Skitour__Oberi_Bielelücke.gpx"
        ],
        "photoUrl": "2020/2020-03-08-Oberi-Bieleluecke",
        "stravaUrl": [
            3166784181
        ]
    },
    {
        "tracks": [
            "2020-05-09__Hike__Felsenegg_and_back.gpx"
        ],
        "stravaUrl": [
            3426041328
        ]
    },
    {
        "tracks": [
            "2020-05-21__Hike__Bürgle_mit_Sherpa__1.gpx",
            "2020-05-21__Hike__Bürgle_mit_Sherpa__2.gpx"
        ],
        "photoUrl": "2020/2020-05-21-Bürgle-mit-Sherpa",
        "stravaUrl": [
            3493852927,
            3493853096
        ],
        "note": "Fasch niemer ufem Niese wenn's Bähnli nid fahrt."
    },
    {
        "tracks": [
            "2020-05-22__Hike__Niesen.gpx"
        ],
        "photoUrl": "2020/2020-05-22-Niesen",
        "stravaUrl": [
            3493853799
        ],
        "note": "Fasch niemer ufem Niese wenn's Bähnli nid fahrt."
    },
    {
        "tracks": [
            "2020-05-24__Hike__Moléson.gpx"
        ],
        "photoUrl": "2020/2020-05-24-Moléson",
        "stravaUrl": [
            3504267201
        ]
    },
    {
        "tracks": [
            "2020-05-31__Hike__Dents_de_Brenleire_et_Savigny.gpx"
        ],
        "photoUrl": "2020/2020-05-31-Dents-de-Brenleire-et-Savigny",
        "stravaUrl": [
            3543507012
        ]
    },
    {
        "tracks": [
            "2020-06-01__Hike__Seebergsee.gpx"
        ],
        "photoUrl": "2020/2020-06-01-Seebergsee",
        "stravaUrl": [
            3547416117
        ],
        "note": "Dog + snow field = panic"
    },
    {
        "tracks": [
            "2020-06-13__Hike__Falknis.gpx"
        ],
        "photoUrl": "2020/2020-06-13-Falknis",
        "stravaUrl": [
            3609561093
        ]
    },
    {
        "tracks": [
            "2020-06-20__Hike__Stöckalp_to_Jochpass.gpx"
        ],
        "photoUrl": "2020/2020-06-20-Stöckalp-to-Jochpass",
        "stravaUrl": [
            3644865993
        ]
    },
    {
        "tracks": [
            "2020-06-21__Hike__Gonzen.gpx"
        ],
        "photoUrl": "2020/2020-06-21-Gonzen",
        "stravaUrl": [
            3650184083
        ]
    },
    {
        "tracks": [
            "2020-06-27__Hike__Gnipen.gpx"
        ],
        "photoUrl": "2020/2020-06-27-Gnipen",
        "stravaUrl": [
            3678469873
        ]
    },
    {
        "tracks": [
            "2020-06-28__Hike__Gross_Aubrig.gpx"
        ],
        "photoUrl": "2020/2020-06-28-Gross-Aubrig",
        "stravaUrl": [
            3683415777
        ]
    },
    {
        "tracks": [
            "2020-07-04__Hike__Torrenthorn.gpx"
        ],
        "photoUrl": "2020/2020-07-04-Torrenthorn-Schafberg",
        "stravaUrl": [
            3714209244
        ]
    },
    {
        "tracks": [
            "2020-07-05__Hike__Leukerbad_to_Adelboden_via_Rote-Totz.gpx"
        ],
        "photoUrl": "2020/2020-07-05-Leukerbad-to-Adelboden-via-Rote-Totz",
        "stravaUrl": [
            3719469829
        ]
    },
    {
        "tracks": [
            "2020-07-10__Hike__Risetenpass.gpx"
        ],
        "photoUrl": "2020/2020-07-10-Risetenpass"
    },
    {
        "tracks": [
            "2020-07-12__Hike__Hinterrugg_und_Chäserugg.gpx"
        ],
        "photoUrl": "2020/2020-07-12-Hinterrugg-und-Chaeserugg",
        "stravaUrl": [
            3752030527
        ]
    },
    {
        "tracks": [
            "2020-07-18__Hike__Pizol.gpx"
        ],
        "photoUrl": "2020/2020-07-18-Pizol",
        "stravaUrl": [
            3781504255
        ]
    },
    {
        "tracks": [
            "2020-07-19__Hike__Bergün-Sertig.gpx"
        ],
        "photoUrl": "2020/2020-07-19-Bergün-Sertig",
        "stravaUrl": [
            3787650533
        ]
    },
    {
        "tracks": [
            "2020-07-25__Hochtour__Lagginhorn_Attempt.gpx"
        ],
        "photoUrl": "2020/2020-07-25-Lagginhorn-Attempt",
        "stravaUrl": [
            3812218088
        ]
    },
    {
        "tracks": [
            "2020-07-27__Hochtour__Mutthornhütte.gpx"
        ],
        "photoUrl": "2020/2020-07-28-Mutthornhütte",
        "stravaUrl": [
            3828378558
        ]
    },
    {
        "tracks": [
            "2020-07-28__Hochtour__Wätterhore.gpx"
        ],
        "photoUrl": "2020/2020-07-28-Mutthornhütte",
        "stravaUrl": [
            3828379046
        ]
    },
    {
        "title": "Oberblegisee",
        "tracks": [
            "2020-07-31__Hike__Oberblegisee.gpx"
        ],
        "photoUrl": "2020/2020-07-31-Oberblegisee"
    },
    {
        "tracks": [
            "2020-08-09__Hike__Majinghorn.gpx"
        ],
        "photoUrl": "2020/2020-08-09-Majinghorn",
        "stravaUrl": [
            3889657074
        ]
    },
    {
        "tracks": [
            "2020-08-10__Run__Gemmi_Running.gpx"
        ],
        "stravaUrl": [
            3892984364
        ]
    },
    {
        "tracks": [
            "2020-08-11__Hike__Majingalp.gpx"
        ],
        "stravaUrl": [
            3899294427
        ]
    },
    {
        "tracks": [
            "2020-08-13__Hike__Flüealp.gpx"
        ],
        "photoUrl": "2020/2020-08-13-Flüealp",
        "stravaUrl": [
            3907698649
        ]
    },
    {
        "tracks": [
            "2020-08-14__Hike__Larschi.gpx"
        ],
        "photoUrl": "2020/2020-08-14-Leukerbad",
        "stravaUrl": [
            3912691384
        ]
    },
    {
        "tracks": [
            "2020-08-15__ViaFerrata__Daubenhorn.gpx"
        ],
        "photoUrl": "2020/2020-08-15-Daubenhorn",
        "stravaUrl": [
            3918185172
        ]
    },
    {
        "tracks": [
            "2020-08-24__Hike__Cabane_dex_Dix_1.gpx"
        ],
        "photoUrl": "2020/2020-08-25-Cabane-des-Dix",
        "stravaUrl": [
            3965342504
        ]
    },
    {
        "tracks": [
            "2020-08-25__Hike__Cabane_dex_Dix_2.gpx"
        ],
        "photoUrl": "2020/2020-08-25-Cabane-des-Dix",
        "stravaUrl": [
            3965342594
        ]
    },
    {
        "tracks": [
            "2020-11-17__Hike__Federispitz.gpx"
        ],
        "photoUrl": "2020/2020-11-17-Federispitz",
        "stravaUrl": [
            4351741626
        ]
    },
    {
        "tracks": [
            "2020-11-28__Hike__Alp_Tschingla.gpx"
        ],
        "photoUrl": "2020/2020-11-28-Alp-Tschingla",
        "stravaUrl": [
            4403866759
        ]
    },
    {
        "tracks": [
            "2020-11-29__Hike__Mythen_Nebelmeer.gpx"
        ],
        "photoUrl": "2020/2020-11-29-Myhen-Nebelmeer",
        "stravaUrl": [
            4408975525
        ]
    },
    {
        "tracks": [
            "2020-12-12__Skitour__Piz_Feil.gpx"
        ],
        "photoUrl": "2020/2020-11-29-Myhen-Nebelmeer",
        "stravaUrl": [
            4463765412
        ]
    },
    {
        "tracks": [
            "2020-12-13__Skitour__Furggelenstock.gpx"
        ],
        "photoUrl": "2020/2020-12-13-Furggelenstock",
        "stravaUrl": [
            4470516518
        ]
    },
    {
        "tracks": [
            "2020-12-17__Skitour__Fil_da_Rubi.gpx"
        ],
        "photoUrl": "2020/2020-12-17-Fil-da-Rubi",
        "stravaUrl": [
            4491618494
        ]
    },
    {
        "tracks": [
            "2020-12-18__Skitour__Piz_Dado.gpx"
        ],
        "photoUrl": "2020/2020-12-18-Piz-Dado",
        "stravaUrl": [
            4491618499
        ]
    },
    {
        "tracks": [
            "2020-12-19__XC-Ski__Brigels.gpx"
        ],
        "stravaUrl": [
            4491618517
        ]
    },
    {
        "title": "Mittagspitz",
        "type": "Skitour",
        "date": "2021-01-09",
        "points": [
            {
                "lat": 46.86908,
                "long": 9.68502
            }
        ],
        "photoUrl": "2021/2021-01-09-Mittagspitz"
    },
    {
        "tracks": [
            "2021-01-10__Skitour__Roggenstock.gpx"
        ],
        "photoUrl": "2021/2021-01-10-Roggenstock",
        "stravaUrl": [
            4600572341
        ]
    },
    {
        "tracks": [
            "2021-01-14__Skitour__Skitour_Uetliberg.gpx"
        ],
        "photoUrl": "2021/2021-01-14-Uetliberg-Skitour",
        "stravaUrl": [
            4620279397
        ]
    },
    {
        "tracks": [
            "2021-01-16__Skitour__Wildspitz.gpx"
        ],
        "photoUrl": "2021/2021-01-16-Wildspitz",
        "stravaUrl": [
            4630798980
        ]
    },
    {
        "tracks": [
            "2021-01-22__Skitour__Furggelen.gpx"
        ],
        "photoUrl": "2021/2021-01-22-Furggelen"
    },
    {
        "tracks": [
            "2021-01-23__Snowshoe__Arnisee.gpx"
        ],
        "photoUrl": "2021/2021-01-23-Arnisee"
    },
    {
        "tracks": [
            "2021-01-24__Skitour__Tguma.gpx"
        ],
        "photoUrl": "2021/2021-01-24-Tguma",
        "stravaUrl": [
            4675742082
        ]
    },
    {
        "tracks": [
            "2021-02-05__Skitour__Parpeinahorn.gpx"
        ],
        "photoUrl": "2021/2021-02-05-Parpeinahorn",
        "stravaUrl": [
            4739713458
        ]
    },
    {
        "tracks": [
            "2021-02-07__Skitour__Meniggrat.gpx"
        ],
        "photoUrl": "2021/2021-02-07-Meniggrat",
        "stravaUrl": [
            4751237046
        ]
    },
    {
        "tracks": [
            "2021-02-20__Skitour__Roggenstock.gpx"
        ],
        "photoUrl": "2021/2021-02-20-Roggenstock",
        "stravaUrl": [
            4818351987
        ]
    },
    {
        "tracks": [
            "2021-02-21__Skitour__Silberen.gpx"
        ],
        "photoUrl": "2021/2021-02-21-Silberen",
        "stravaUrl": [
            4826149054
        ]
    },
    {
        "tracks": [
            "2021-02-26__Skitour__Selun.gpx"
        ],
        "photoUrl": "2021/2021-02-26-Selun",
        "stravaUrl": [
            4853718370
        ]
    },
    {
        "title": "Pic de Grandval",
        "type": "Climb",
        "date": "2021-02-28",
        "points": [
            {
                "lat": 47.29378,
                "long": 7.42532
            }
        ],
        "photoUrl": "2021/2021-02-28-Pic-de-Grandval"
    },
    {
        "tracks": [
            "2021-03-07__Hike__Klein_Mythen_Vorgipfel.gpx"
        ],
        "photoUrl": "2021/2021-03-07-Klein-Mythen-Vorgipfel",
        "stravaUrl": [
            4908475439
        ]
    },
    {
        "tracks": [
            "2021-03-20__Skitour__Um_Su.gpx"
        ],
        "photoUrl": "2021/2021-03-20-Um-Su",
        "stravaUrl": [
            4987322121
        ]
    },
    {
        "tracks": [
            "2021-03-21__Skitour__Fil_da_Rueun.gpx"
        ],
        "photoUrl": "2021/2021-03-21-Fil-da-Rueun",
        "stravaUrl": [
            4987322210
        ]
    },
    {
        "tracks": [
            "2021-03-26__Skitour__Rütistein.gpx"
        ],
        "photoUrl": "2021/2021-03-26-Rütistein",
        "stravaUrl": [
            5014556223
        ]
    },
    {
        "title": "Holzegg",
        "type": "Climb",
        "date": "2021-03-28",
        "points": [
            {
                "lat": 47.29378,
                "long": 7.42532
            }
        ],
        "photoUrl": "2021/2021-03-28-Holzegg"
    },
    {
        "title": "Pic de Grandval",
        "type": "Climb",
        "date": "2021-04-02",
        "points": [
            {
                "lat": 47.02795,
                "long": 7.69511
            }
        ],
        "photoUrl": "2021-04-02-Pic-de-Grandval-mit-Beni"
    },
    {
        "title": "Pic de Crémines",
        "type": "Climb",
        "date": "2021-02-28",
        "points": [
            {
                "lat": 47.29383,
                "long": 7.42999
            }
        ],
        "photoUrl": "2021/2021-04-04-Pic-de-Crémines-mit-Marius"
    },
    {
        "tracks": [
            "2021-04-09__Hike__Lägerngrat.gpx"
        ],
        "photoUrl": "2021/2021-04-09-Lägerngrat"
    },
    {
        "title": "Farnerenzähne",
        "type": "Climb",
        "date": "2021-05-09",
        "points": [
            {
                "lat": 47.27643,
                "long": 7.62126
            }
        ],
        "photoUrl": "2021/2021-05-09-Farnerenzähne"
    },
    {
        "title": "Haldenstein",
        "type": "Climb",
        "date": "2021-05-15",
        "points": [
            {
                "lat": 46.88403,
                "long": 9.53084
            }
        ],
        "photoUrl": "2021/2021-05-15-Haldenstein"
    },
    {
        "tracks": [
            "2021-05-22__Hike__Stöcklichrüz.gpx"
        ],
        "photoUrl": "2021/2021-05-22-Stöcklichrüz"
    },
    {
        "tracks": [
            "2021-05-28__Hike__Lavaux.gpx"
        ],
        "photoUrl": "2021/2021-05-28-Lavaux",
        "stravaUrl": [
            5379430445
        ]
    },
    {
        "tracks": [
            "2021-05-29__Hike__Obersee.gpx"
        ],
        "photoUrl": "2021/2021-05-29-Obersee",
        "stravaUrl": [
            5379430766
        ]
    },
    {
        "title": "Moutier - Arête spéciale",
        "type": "Climb",
        "date": "2021-05-30",
        "points": [
            {
                "lat": 47.28521,
                "long": 7.38253
            }
        ],
        "photoUrl": "2021/2021-05-30-Moutier-Arête-spéciale"
    },
    {
        "tracks": [
            "2021-06-11__Hike__Rigi.gpx"
        ],
        "photoUrl": "2021/2021-06-11-Rigi"
    },
    {
        "tracks": [
            "2021-06-13__Hike__Pizalun.gpx"
        ],
        "photoUrl": "2021/2021-06-13-Pizalun",
        "stravaUrl": [
            5464931887
        ]
    },
    {
        "tracks": [
            "2021-06-18__Hike__Dreibündenstein.gpx"
        ],
        "photoUrl": "2021/2021-06-18-Dreibündenstein"
    },
    {
        "tracks": [
            "2021-06-26__Hike__Hirzli_und_Planggenstock.gpx"
        ],
        "photoUrl": "2021-06-26-Hirzli-und-Planggenstock",
        "stravaUrl": [
            5533471939
        ]
    },
    {
        "tracks": [
            "2021-06-28__Hike__Älplisee.gpx"
        ],
        "photoUrl": "2021/2021-06-28-Älplisee"
    },
    {
        "tracks": [
            "2021-07-02__Hike__Fronalpstock_SZ.gpx"
        ],
        "photoUrl": "2021/2021-07-02-Fronalpstock-SZ"
    },
    {
        "tracks": [
            "2021-07-09__Hike__Lag_da_Pigniu.gpx"
        ],
        "photoUrl": "2021/2021-07-09-Lag-da-Pigniu"
    },
    {
        "tracks": [
            "2021-07-12__Hike__Guraletschsee.gpx"
        ],
        "photoUrl": "2021/2021-07-12-Guraletschsee",
        "stravaUrl": [
            5617311689
        ]
    },
    {
        "tracks": [
            "2021-07-14__Hike__Zervreilasee.gpx"
        ],
        "photoUrl": "2021/2021-07-14-Zervreilasee",
        "stravaUrl": [
            5627441049
        ]
    }
]
